{
"type": "FeatureCollection",
"name": "FireStationPoints",
"crs": { "type": "name", "properties": { "name": "urn:ogc:def:crs:OGC:1.3:CRS84" } },
"features": [
{ "type": "Feature", "properties": { "fid": 1, "name": "Кубовинский отдельный пост пожарной части № 111", "address": "Линейная ул., 20, посёлок Сосновка", "district": "Кубовинский", "type": "пч", "phone": "+7 (383) 295-12-65" }, "geometry": { "type": "Point", "coordinates": [ 82.946580575846724, 55.236255415097162 ] } },
{ "type": "Feature", "properties": { "fid": 2, "name": "Мочищенский отдельный пост пожарной части №111", "address": "Первомайская улица, 242 к1,\nдп. Мочище", "district": "Мочищенский", "type": "пч", "phone": "+7 (383) 294‒54‒44" }, "geometry": { "type": "Point", "coordinates": [ 82.861675639581662, 55.158666580415122 ] } },
{ "type": "Feature", "properties": { "fid": 3, "name": "Станционный отдельный пост пожарной части №111", "address": "Молодёжная улица, 25,\nст. Мочище", "district": "Станционный", "type": "пч", "phone": "+7 (383) 294‒71‒86" }, "geometry": { "type": "Point", "coordinates": [ 83.127544914582415, 55.16605127467178 ] } },
{ "type": "Feature", "properties": { "fid": 4, "name": "Пожарно-спасательная часть №5", "address": "Улица Вавилова, 1а", "district": "Заельцовский район", "type": "псч", "phone": "+7 (383) 226‒04‒52" }, "geometry": { "type": "Point", "coordinates": [ 82.896677838293868, 55.054294946196549 ] } },
{ "type": "Feature", "properties": { "fid": 5, "name": "Отдельный пост пожарно-спасательной части №5", "address": "санаторий Заельцовский бор, 1", "district": "Заельцовский район", "type": "псч", "phone": "+7 (913) 370-63-67" }, "geometry": { "type": "Point", "coordinates": [ 82.810432421383922, 55.072874607603836 ] } },
{ "type": "Feature", "properties": { "fid": 6, "name": "Специальная пожарно-спасательная часть", "address": "Улица Дунаевского, 27", "district": "​Калининский район", "type": "спсч", "phone": "+7 (383) 274‒13‒11" }, "geometry": { "type": "Point", "coordinates": [ 82.979010665204839, 55.106359796566238 ] } },
{ "type": "Feature", "properties": { "fid": 7, "name": "Пожарно-спасательная часть №19", "address": "Улица Авиастроителей, 24​", "district": "Дзержинский район", "type": "псч", "phone": "+7 (383) 265‒01‒01" }, "geometry": { "type": "Point", "coordinates": [ 82.98190549647758, 55.076286494442776 ] } },
{ "type": "Feature", "properties": { "fid": 8, "name": "Пожарно-спасательная часть №4 ", "address": "Комбинатская улица, 8", "district": "Дзержинский район", "type": "псч", "phone": "+7 (383) 279‒01‒01" }, "geometry": { "type": "Point", "coordinates": [ 82.975641926643121, 55.05086074151621 ] } },
{ "type": "Feature", "properties": { "fid": 9, "name": "Пожарно-спасательная часть №2 ", "address": "Сибирская улица, 52​", "district": "Железнодорожный район", "type": "псч", "phone": "+7 (383) 221‒15‒37" }, "geometry": { "type": "Point", "coordinates": [ 82.910786572169386, 55.036974557857171 ] } },
{ "type": "Feature", "properties": { "fid": 10, "name": "Пожарно-спасательная часть №1 ", "address": "Октябрьская улица, 86", "district": "Центральный район", "type": "псч", "phone": "+7 (383) 223‒79‒70" }, "geometry": { "type": "Point", "coordinates": [ 82.933008827224938, 55.025400014922639 ] } },
{ "type": "Feature", "properties": { "fid": 11, "name": "Пожарно-спасательная часть №3 ", "address": "Улица Кирова, 130", "district": "Октябрьский район", "type": "псч", "phone": "+7 (383) 266‒51‒17" }, "geometry": { "type": "Point", "coordinates": [ 82.95710387253186, 55.010749515660194 ] } },
{ "type": "Feature", "properties": { "fid": 12, "name": "Пожарно-спасательная часть №7", "address": "Улица Эйхе, 9", "district": "Первомайский район", "type": "псч", "phone": "+7 (383) 337‒12‒26" }, "geometry": { "type": "Point", "coordinates": [ 83.098750764468633, 54.974053142682365 ] } },
{ "type": "Feature", "properties": { "fid": 13, "name": "Пожарно-спасательная часть №15", "address": "Станционная улица, 78 к2", "district": "Ленинский район", "type": "псч", "phone": "+7 (383) 341‒18‒77" }, "geometry": { "type": "Point", "coordinates": [ 82.799928665999843, 54.996672973850252 ] } },
{ "type": "Feature", "properties": { "fid": 14, "name": "Пожарно-спасательная часть №6", "address": "​Широкая улица, 38", "district": "Ленинский район", "type": "псч", "phone": "+7 (383) 341‒52‒21" }, "geometry": { "type": "Point", "coordinates": [ 82.840379222510848, 54.994336024846369 ] } },
{ "type": "Feature", "properties": { "fid": 15, "name": "Пожарно-спасательная часть №9", "address": "Улица Сибиряков-Гвардейцев, 78", "district": "Кировский район", "type": "псч", "phone": "+7 (383) 342‒02‒26" }, "geometry": { "type": "Point", "coordinates": [ 82.892857317633059, 54.934624840108739 ] } },
{ "type": "Feature", "properties": { "fid": 16, "name": "Пожарно-спасательная часть №8", "address": "ул.\nКутателадзе, 3", "district": "Советский район", "type": "псч", "phone": "+7 (383) 332‒07‒48" }, "geometry": { "type": "Point", "coordinates": [ 83.0989070682283, 54.858755517519121 ] } },
{ "type": "Feature", "properties": { "fid": 17, "name": "Пожарно-спасательная часть №24", "address": "Улица Печатников, 22", "district": "Советский район", "type": "псч", "phone": "+7 (383) 345‒05‒08" }, "geometry": { "type": "Point", "coordinates": [ 82.976033756616076, 54.863086871515655 ] } },
{ "type": "Feature", "properties": { "fid": 18, "name": "Пожарно-спасательная часть №46", "address": "Улица Олега Кошевого, 26", "district": "Обь", "type": "псч", "phone": "+7 (383) 295‒21‒20" }, "geometry": { "type": "Point", "coordinates": [ 82.721447049529857, 54.988396212834168 ] } },
{ "type": "Feature", "properties": { "fid": 19, "name": "Пожарно-спасательная часть №37", "address": "Северная улица, 101 к2", "district": "Краснообск", "type": "псч", "phone": "+7 (383) 348‒12‒01" }, "geometry": { "type": "Point", "coordinates": [ 82.993394179662559, 54.928148803439264 ] } },
{ "type": "Feature", "properties": { "fid": 20, "name": "Отдельный пост пожарно-спасательной части №37", "address": "Рабочая улица, 20/1", "district": "Верх-Тула", "type": "псч", "phone": "+7 (383) 293‒39‒66" }, "geometry": { "type": "Point", "coordinates": [ 82.782725260429231, 54.889462385571655 ] } },
{ "type": "Feature", "properties": { "fid": 21, "name": "Криводановский отельный пост пожарной части №101", "address": "Административная улица, 53", "district": "Криводановка", "type": "пч", "phone": "1‒01" }, "geometry": { "type": "Point", "coordinates": [ 82.66588980952983, 55.083773493248714 ] } },
{ "type": "Feature", "properties": { "fid": 22, "name": "Кудряшовский отдельный пост пожарной части №101 ", "address": "Барвихинский переулок, 13/1", "district": "Приобский", "type": "пч", "phone": "+7‒913‒782‒20‒48" }, "geometry": { "type": "Point", "coordinates": [ 82.769460486910688, 55.072593944038829 ] } },
{ "type": "Feature", "properties": { "fid": 23, "name": "Боровской отдельный пост пожарной части №101", "address": "Улица Мира, 2а", "district": "Боровое", "type": "пч", "phone": "+7 (383) 295‒85‒36" }, "geometry": { "type": "Point", "coordinates": [ 82.635948930896163, 54.699237940596007 ] } },
{ "type": "Feature", "properties": { "fid": 24, "name": "Ярковский отдельный пост пожарной части №101 ", "address": "Советская улица, 4а", "district": "Ярково", "type": "пч", "phone": "+7 (383) 293‒46‒43" }, "geometry": { "type": "Point", "coordinates": [ 82.608851867609815, 54.806963298292544 ] } },
{ "type": "Feature", "properties": { "fid": 25, "name": "Специальная пожарно-спасательная часть №3", "address": "Кольцово Промзона, 61", "district": "Кольцово", "type": "спсч", "phone": "+7 (383) 252‒03‒55" }, "geometry": { "type": "Point", "coordinates": [ 83.22512008122132, 54.943563962689367 ] } },
{ "type": "Feature", "properties": { "fid": 26, "name": "Советский отдельный пост пожарной части №130", "address": "​Боровая Партия, 20​", "district": "Советский район", "type": "пч", "phone": "+7 (383) 334‒48‒50" }, "geometry": { "type": "Point", "coordinates": [ 83.090816867174283, 54.809763280988562 ] } },
{ "type": "Feature", "properties": { "fid": 27, "name": "Березовский отдельный пост пожарной части №130", "address": "Цветочная улица, 9", "district": "Шелковичиха", "type": "пч", "phone": "+7 (383) 349‒94‒02" }, "geometry": { "type": "Point", "coordinates": [ 83.340288665826534, 54.982101440584977 ] } },
{ "type": "Feature", "properties": { "fid": 28, "name": "Плотниковский отдельный пост пожарной части №130 ", "address": "Трактовая улица, 19/1", "district": "Плотниково", "type": "пч", "phone": "+7 (383) 349‒14‒34" }, "geometry": { "type": "Point", "coordinates": [ 83.394268592195047, 55.041297116844383 ] } }
]
}
